Time,a_x fts^2,a_y fts^2,a_z fts^2,Roll rate degs,Pitch rate degs,Yaw rate degs,Roll deg,Pitch deg,Heading deg,Velocity kt,Angle of attack deg,Side-slip angle deg,Latitude,Longitude,Altitude
584.658,-1.450459289,0.3260074781,-32.38877137,0.116983278,0.09086932962,-0.08403107558,-0.7403663312,-3.526953818,44.04010558,122.3426253,-0.8830069879,-0.3746036241,63.92696945,-22.14696728,1403.677749
584.758,-1.468893944,0.3102355505,-32.36306397,0.1235209961,0.08563815091,-0.1089615997,-0.729202845,-3.519232436,44.031384,122.404891,-0.8863103878,-0.3657428035,63.92699925,-22.14686813,1402.912504
584.858,-1.478390476,0.2938288379,-32.36986749,0.1139635129,0.122031787,-0.1252946974,-0.7162280871,-3.508153827,44.01873296,122.4778622,-0.887656611,-0.3531388745,63.92703446,-22.14675094,1402.010136
584.967,-1.476617909,0.2790193845,-32.42465623,0.1004557387,0.1388760495,-0.1271429053,-0.7054491972,-3.494849982,44.00611655,122.5445548,-0.8867215534,-0.3408242302,63.92706698,-22.14664275,1401.17928
585.058,-1.481893454,0.2656707786,-32.38671071,0.08729726259,0.1322645244,-0.1182520753,-0.6960476158,-3.481300556,43.9938322,122.6100699,-0.8917840166,-0.3290065555,63.92709951,-22.14653453,1400.350957
585.158,-1.487938427,0.2546171656,-32.29757603,0.07861647856,0.1493546512,-0.1028906862,-0.6884351049,-3.468567672,43.98367468,122.6689755,-0.8998665737,-0.3194023257,63.92712933,-22.14643532,1399.593577
585.267,-1.488473311,0.2437918043,-32.29415633,0.06954117049,0.1718946689,-0.07775183702,-0.6803899046,-3.451112446,43.97383602,122.7379629,-0.9039979002,-0.3104568763,63.92716459,-22.14631806,1398.69993
585.367,-1.4913455,0.23718993,-32.31720813,0.0618400295,0.1840970101,-0.05064903036,-0.6738064009,-3.433204998,43.96738216,122.8009632,-0.9047573897,-0.3049760996,63.92719714,-22.1462098,1397.876239
585.467,-1.495279352,0.2340627371,-32.35468236,0.05510021197,0.1828684763,-0.02267722316,-0.6679531668,-3.414696499,43.96370151,122.863185,-0.9046012769,-0.3023135883,63.92722971,-22.14610152,1397.053954
585.567,-1.501812023,0.2342519372,-32.38601069,0.04974513985,0.1745553963,0.003556661541,-0.6627125165,-3.396709998,43.96275768,122.9245617,-0.9047888591,-0.3023373376,63.92726228,-22.14599324,1396.233452
585.667,-1.511304213,0.2373429673,-32.39576073,0.04581927452,0.1655075626,0.02610750954,-0.6579409551,-3.379615941,43.96428141,122.9850787,-0.9055212631,-0.3046986457,63.92729485,-22.14588493,1395.41505
585.758,-1.518644589,0.242602488,-32.41298499,0.04298118148,0.1544718731,0.04374775837,-0.6535090679,-3.363488819,43.96784283,123.044662,-0.906804549,-0.3089037072,63.92732744,-22.14577662,1394.598964
585.867,-1.529923394,0.2494602856,-32.41760962,0.04091425544,0.1474003619,0.05569424817,-0.649324763,-3.348456852,43.9729122,123.1033436,-0.9086057514,-0.3143743501,63.92736003,-22.1456683,1393.785356
585.967,-1.538801175,0.2570799298,-32.43034805,0.03918960358,0.1498672145,0.0619748899,-0.6453244735,-3.333554834,43.9789118,123.1611124,-0.9099301996,-0.3205153904,63.92739263,-22.14555996,1392.974291
586.083,-1.543554778,0.2630502015,-32.42736837,0.03783725754,0.1476698068,0.06333316481,-0.6424395558,-3.322291287,43.98369528,123.2037059,-0.9119329772,-0.3252147514,63.92741708,-22.1454787,1392.367727
586.158,-1.535957952,0.2717707415,-32.38538912,0.03680297467,0.1068896988,0.0608240437,-0.6380609883,-3.305617892,43.99110708,123.2682677,-0.9201731783,-0.3321227142,63.92745513,-22.14535228,1391.426762
586.258,-1.572815067,0.2786844778,-32.25276391,0.0366024865,0.1111647993,0.05323232209,-0.6344112853,-3.295882012,43.99697945,123.3229272,-0.9279864256,-0.3372603775,63.92748774,-22.14524391,1390.622316
586.358,-1.578928499,0.2834715947,-32.28057905,0.03506268639,0.1849112706,0.04343492006,-0.6308078349,-3.281285129,44.0019525,123.3768398,-0.9283857728,-0.3413519164,63.92752036,-22.14513553,1389.818826
586.458,-1.578095204,0.2871918855,-32.37232033,0.03059530432,0.2232039989,0.0340253874,-0.6274991726,-3.260556,44.00595795,123.4299267,-0.9235287287,-0.3443753415,63.92755298,-22.14502714,1389.016491
586.567,-1.57587353,0.29009829,-32.4912527,0.02423031303,0.2084341471,0.02424305182,-0.6245131004,-3.236655623,44.00926019,123.486279,-0.91904248,-0.3464825208,63.92758833,-22.14490971,1388.149796
586.658,-1.581403586,0.2916765756,-32.53102355,0.01930498142,0.180829289,0.01594618734,-0.622514392,-3.21865559,44.01122612,123.5331286,-0.9182798988,-0.3473321019,63.92761824,-22.14481033,1387.419358
586.767,-1.589033745,0.2922329674,-32.53504764,0.01452341831,0.1533679267,0.006626746755,-0.6206847402,-3.200494973,44.01258542,123.5876106,-0.9201180944,-0.3472898917,63.92765359,-22.14469287,1386.560033
586.867,-1.595422444,0.2915848417,-32.51388867,0.0108470053,0.1361030339,-0.0006864911193,-0.619417196,-3.185931972,44.01299724,123.6371727,-0.9229765885,-0.3463772922,63.92768622,-22.14458445,1385.770608
586.958,-1.597405874,0.2901867404,-32.50270947,0.007756616749,0.1181805079,-0.005751313752,-0.6185644478,-3.174137392,44.01280066,123.6819911,-0.9261826165,-0.3449709982,63.92771614,-22.14448505,1385.050057
587.058,-1.602442661,0.2881482658,-32.4631468,0.004929711621,0.1073595733,-0.009387941694,-0.6179352294,-3.162838875,44.01213868,123.7303238,-0.9303557329,-0.3430119416,63.92774878,-22.1443766,1384.267159
587.158,-1.606819478,0.2856237015,-32.42284785,0.002189130653,0.08315750984,-0.01086088796,-0.617559322,-3.152540659,44.01113732,123.7820148,-0.9356749169,-0.3406490821,63.92778414,-22.14425912,1383.422362
587.258,-1.614667983,0.2831779827,-32.38543859,0.0002385984261,0.09077250227,-0.01047886461,-0.6174419392,-3.143981534,44.01014999,123.8292775,-0.9395760237,-0.3384682447,63.92781678,-22.14415066,1382.64519
587.358,-1.61667037,0.2810602989,-32.3835295,-0.001757199866,0.1007552788,-0.008295278385,-0.6175117579,-3.135138073,44.00935732,123.8721885,-0.9413108622,-0.3366533975,63.92784671,-22.14405124,1381.9347
587.467,-1.618229628,0.2791292094,-32.3963338,-0.004259977162,0.09833888603,-0.003918959596,-0.6178408769,-3.124126918,44.00877032,123.9223444,-0.9425372486,-0.3349309645,63.92788207,-22.14393373,1381.09739
587.558,-1.620845629,0.2781165114,-32.39941758,-0.006039348254,0.08690512636,0.0005331256658,-0.6183200154,-3.115501744,44.00868391,123.9643074,-0.9440774273,-0.3339218702,63.927912,-22.1438343,1380.391001
587.658,-1.625552231,0.277637217,-32.38902514,-0.007315428882,0.07331950326,0.005466307377,-0.6190000091,-3.107400741,44.00906284,124.0096074,-0.9465608434,-0.3333145084,63.92794464,-22.14372583,1379.622618
587.758,-1.630359885,0.2777545076,-32.37015081,-0.007985425172,0.06091562977,0.01042580429,-0.61984388,-3.100007429,44.01001413,124.0581494,-0.9497707304,-0.333206716,63.92798001,-22.14360831,1378.792706
587.858,-1.636208518,0.2783824899,-32.34524573,-0.008124003906,0.0514203744,0.01432082861,-0.620664069,-3.094328251,44.01133963,124.102518,-0.9529736897,-0.3335496804,63.92801266,-22.14349983,1378.028756
587.967,-1.639218222,0.2794126579,-32.32651771,-0.007999141458,0.04139779288,0.01738499747,-0.6214843718,-3.089572772,44.0130176,124.1464155,-0.95624118,-0.3342294217,63.92804531,-22.14339134,1377.266621
588.067,-1.645118971,0.2807584959,-32.29758726,-0.0076349604,0.0338046149,0.01943367501,-0.6222818216,-3.08579095,44.01495693,124.1899125,-0.9598897786,-0.3351410554,63.92807796,-22.14328285,1376.506082
588.158,-1.649781115,0.282097543,-32.27030483,-0.007087104674,0.03284992672,0.02045037113,-0.6229693962,-3.082691648,44.01687591,124.2294065,-0.9631896641,-0.3360892037,63.92810789,-22.14318341,1375.810073
588.258,-1.65543191,0.2836962735,-32.24960719,-0.00660186161,0.03286002465,0.02078821376,-0.6237231077,-3.079057995,44.01922201,124.2757081,-0.9661527401,-0.3372612952,63.92814326,-22.14306587,1374.988637
588.358,-1.660085853,0.2851584334,-32.24103637,-0.006393634651,0.03189984343,0.02036407591,-0.6243842612,-3.075763852,44.02138478,124.3180455,-0.9683411874,-0.3383125911,63.92817591,-22.14295738,1374.231302
588.458,-1.663778904,0.2865151955,-32.23758626,-0.006355411827,0.02926751049,0.01936432885,-0.6250325853,-3.072601272,44.02347718,124.3600186,-0.9702543827,-0.3392674466,63.92820856,-22.14284889,1373.47476
588.567,-1.667541984,0.287745839,-32.23260173,-0.006403477128,0.02218408133,0.01790065481,-0.6256825459,-3.069951124,44.02544849,124.4016211,-0.9723398283,-0.340074442,63.92824121,-22.14274039,1372.718974
588.667,-1.673133433,0.2887342991,-32.22272763,-0.006393782117,0.0202077762,0.01604271801,-0.6263341225,-3.067815057,44.02725333,124.4429227,-0.9744674463,-0.3406938752,63.92827386,-22.14263189,1371.963872
588.758,-1.677315044,0.2894486832,-32.21853712,-0.006471751017,0.0201955283,0.01412023276,-0.6269876404,-3.065730327,44.02886686,124.4839124,-0.9762822274,-0.3411123666,63.9283065,-22.1425234,1371.209371
588.867,-1.681156603,0.2899315555,-32.21727885,-0.006658009606,0.01912838066,0.01232899174,-0.6276544948,-3.063695516,44.03029306,124.5245962,-0.9779152113,-0.3413403166,63.92833915,-22.1424149,1370.45543
588.958,-1.685771549,0.2902106578,-32.21358226,-0.006884676966,0.01397826687,0.01078062884,-0.628343168,-3.061964071,44.03155135,124.5650084,-0.9796725617,-0.3414004458,63.92837179,-22.1423064,1369.702039
589.067,-1.689656069,0.2903862325,-32.20055762,-0.006972681449,0.01133051486,0.009458475195,-0.629049782,-3.060655946,44.03266426,124.6050394,-0.9822386694,-0.341311547,63.92840444,-22.1421979,1368.949166
589.158,-1.694918628,0.290358217,-32.17278784,-0.006651931865,0.01442136415,0.008507217506,-0.6297447937,-3.059337807,44.03366023,124.6447484,-0.985282899,-0.3411061591,63.92843708,-22.1420894,1368.196644
589.258,-1.697495703,0.2901914428,-32.16694042,-0.006456569832,0.01688053501,0.008070172805,-0.6304111638,-3.057708635,44.03458457,124.6841575,-0.9873374987,-0.3408510846,63.92846972,-22.14198091,1367.444254
589.358,-1.701030473,0.2900307036,-32.16546334,-0.006431936665,0.01680883848,0.008086003934,-0.63106666,-3.055955984,44.03548709,124.7233293,-0.9888938631,-0.3405941479,63.92850236,-22.14187241,1366.691917
589.458,-1.703530154,0.2899316373,-32.16677749,-0.006461279761,0.01378023385,0.008405593597,-0.6316680042,-3.054448564,44.03632946,124.7590051,-0.9902170465,-0.3403879421,63.92853228,-22.14177295,1366.002313
589.558,-1.705703507,0.2898799179,-32.16486972,-0.006393698272,0.005774282315,0.0089789713,-0.6323237012,-3.053287609,44.03729195,124.7977141,-0.9919157554,-0.3402166864,63.92856492,-22.14166446,1365.250062
589.658,-1.710836225,0.2900327997,-32.14059917,-0.006060598667,-0.01927038821,0.009605124272,-0.6330201727,-3.053979227,44.03840761,124.8393272,-0.9952403144,-0.3400975794,63.92860027,-22.14154692,1364.435168
589.758,-1.72078794,0.290137425,-32.10830006,-0.005170172838,-0.01125623709,0.009707101182,-0.6335982152,-3.055740071,44.03947128,124.8775963,-0.9982585258,-0.3400214589,63.92863291,-22.14143843,1363.682742
589.867,-1.71994396,0.2871558233,-32.11201604,-0.006137094816,0.006297227758,0.01056919194,-0.6341140474,-3.055893513,44.04055961,124.9044932,-0.9990045716,-0.338491352,63.92866554,-22.14132994,1362.929816
589.967,-1.713950367,0.2888682089,-32.12141861,-0.008420696668,0.005350024636,0.0124824217,-0.6348749088,-3.055116212,44.0418085,124.8994196,-0.9984429449,-0.3392252989,63.92869817,-22.14122145,1362.176421
590.058,-1.712089568,0.2900136271,-32.11183369,-0.008526023839,-0.001825180983,0.01333404664,-0.635597573,-3.054887653,44.04296765,124.8952444,-0.9989860121,-0.3399321535,63.92872536,-22.14113105,1361.548302
590.167,-1.709101119,0.2913681187,-32.06401824,-0.007070134383,-0.01029197748,0.01333527265,-0.6365354548,-3.055427582,44.04464928,124.8890558,-1.00249175,-0.3409297817,63.92876342,-22.14100448,1360.668274
590.258,-1.710867435,0.292342136,-32.02560705,-0.005538894388,-0.004670060544,0.01232666322,-0.6371820137,-3.056264178,44.04604013,124.8843164,-1.004226589,-0.3417040851,63.92879605,-22.140896,1359.9129
590.367,-1.707714135,0.2929929579,-32.02730769,-0.004583690486,0.003779678557,0.01094145852,-0.6376980799,-3.056230846,44.04730861,124.8792104,-1.004299517,-0.3423754701,63.92882867,-22.14078752,1359.156217
590.458,-1.704751638,0.2935142572,-32.03442222,-0.004222036177,0.002491096525,0.009534301639,-0.6381111147,-3.05581996,44.04834396,124.874804,-1.003788452,-0.3428537318,63.92885857,-22.14068808,1358.461415
590.567,-1.702323311,0.2939955779,-32.0339711,-0.0039997695,-0.007141490358,0.007626734397,-0.6385695413,-3.055893555,44.04938976,124.8699114,-1.003550899,-0.3432222698,63.92889391,-22.14057056,1357.638913
590.658,-1.700866269,0.2941585859,-32.02951964,-0.003773028437,-0.02072235777,0.005834975908,-0.6389385971,-3.05704812,44.05010532,124.8654005,-1.004108749,-0.3433720631,63.92892381,-22.14047112,1356.941807
590.758,-1.702968287,0.2941542321,-32.0035702,-0.00326310017,-0.02753795147,0.003520924011,-0.6393363582,-3.059731016,44.05072844,124.8607108,-1.005281412,-0.3433010778,63.92895914,-22.1403536,1356.116497
590.858,-1.702260109,0.2937859723,-31.99650679,-0.002908116692,-0.02542208173,0.001765304993,-0.6396300174,-3.062134562,44.051065,124.8564027,-1.005778089,-0.3430803609,63.92898904,-22.14025417,1355.416745
590.958,-1.699988348,0.2932354593,-31.9906654,-0.002789574152,-0.02879395064,0.0002820446221,-0.6399499271,-3.064929019,44.05128289,124.8519799,-1.005947741,-0.3426409305,63.92902437,-22.14013665,1354.587977
591.067,-1.702449583,0.292836727,-31.94517066,-0.002599776779,-0.03160328255,-0.0006570619475,-0.6402389326,-3.067974014,44.05136349,124.8475975,-1.008634364,-0.3421147644,63.92905698,-22.14002818,1353.821204
591.158,-1.704681118,0.2921664636,-31.86288058,-0.0008918867843,-0.0113646136,-0.001111775699,-0.6404220299,-3.070117899,44.05136883,124.8428536,-1.014598848,-0.3415360116,63.92908687,-22.13992875,1353.116416
591.258,-1.700757327,0.2911432495,-31.8384553,0.0004585019914,0.01428576116,-0.0005736509526,-0.6404487662,-3.069880577,44.05137002,124.8380127,-1.016002659,-0.3409571455,63.92911948,-22.13982028,1352.344632
591.358,-1.697315822,0.2904143868,-31.85312811,0.0005469522288,0.02194735811,0.0008495055491,-0.6404031582,-3.067950359,44.05147185,124.8332119,-1.014857987,-0.3405296978,63.92915208,-22.13971181,1351.569591
591.458,-1.696253997,0.2899895498,-31.87720919,0.0001245483335,0.02360717273,0.002488848316,-0.6403770987,-3.06560608,44.05172975,124.8284301,-1.012988508,-0.3402857641,63.92918469,-22.13960334,1350.791449
591.558,-1.693291422,0.2898243137,-31.9071852,-0.0004126954784,0.02319895261,0.004061807411,-0.6404000782,-3.06314757,44.05214911,124.8236554,-1.010885322,-0.3402200573,63.92921729,-22.13949487,1350.010456
591.658,-1.69538457,0.2900704943,-31.91586272,-0.0009540073982,0.01316005869,0.005451007826,-0.6404904614,-3.061236894,44.05277232,124.8187617,-1.00934445,-0.3403093789,63.92925261,-22.13937737,1349.161489
591.758,-1.693208964,0.290456609,-31.93510899,-0.001143330228,0.01450944718,0.006209791285,-0.6406075724,-3.05974818,44.05345207,124.8113886,-1.007843544,-0.3406204184,63.92928521,-22.1392689,1348.375346
591.867,-1.691385952,0.291287289,-31.95503935,-0.0007831312262,0.009356200083,0.006321614878,-0.6407233214,-3.058548248,44.05418452,124.794048,-1.00639319,-0.3414003414,63.92931781,-22.13916044,1347.586994
591.958,-1.689961254,0.2920157365,-31.96566429,-0.0001499886423,0.01008235646,0.005680417286,-0.6407790176,-3.057626567,44.05483109,124.779381,-1.005042987,-0.3420258811,63.92934769,-22.13906102,1346.86251
592.067,-1.688974595,0.2927592263,-31.96915402,0.0005510032505,0.01316158351,0.004324252093,-0.6407739389,-3.056380854,44.05548978,124.7620532,-1.004430285,-0.3426305903,63.929383,-22.13894352,1346.004172
592.158,-1.685811002,0.2931726938,-31.94336271,0.00173001197,0.02356720411,0.002941044942,-0.640684181,-3.054644152,44.05591691,124.7471681,-1.005591184,-0.3429729498,63.92941288,-22.13884409,1345.27603
592.258,-1.684247166,0.2935139863,-31.92552459,0.002707177824,0.02251457577,0.001392304868,-0.6404573257,-3.052106332,44.0562662,124.7309056,-1.005346849,-0.3431740919,63.92944819,-22.13872659,1344.413065
592.358,-1.683134527,0.2933147019,-31.94174746,0.003162033359,0.02952981835,-2.935482646e-05,-0.640198303,-3.049747804,44.05642386,124.714896,-1.004218528,-0.3433032669,63.92947806,-22.13862717,1343.680773
592.458,-1.679990445,0.2931996039,-31.96458426,0.003151196459,0.0365053636,-0.001357222262,-0.6398895688,-3.04637565,44.05645536,124.6988555,-1.001986965,-0.3432589951,63.92951065,-22.13851872,1342.879793
592.558,-1.676340091,0.2929212899,-31.98910326,0.002727922128,0.0353452688,-0.002438386994,-0.6395795905,-3.042287831,44.05635704,124.6827629,-0.9992910085,-0.3430384993,63.92954596,-22.13840122,1342.009852
592.667,-1.673705681,0.2924384801,-32.01588234,0.002272440229,0.02501460494,-0.003246090814,-0.6393414092,-3.039162791,44.05617389,124.6654951,-0.9975581909,-0.3428403397,63.92957854,-22.13829276,1341.205089
592.767,-1.672359729,0.2921439041,-32.0136062,0.002077139376,0.01425254166,-0.004016272617,-0.6391370182,-3.037105504,44.0559115,124.6508023,-0.996679776,-0.3424607066,63.92961113,-22.1381843,1340.398842
592.858,-1.672554877,0.2916055967,-32.01033496,0.002088533675,0.01001164821,-0.004730655925,-0.6389428458,-3.035911267,44.05557449,124.6349222,-0.9961857873,-0.3420601714,63.92964371,-22.13807585,1339.59115
592.958,-1.67136572,0.2908760353,-32.01984976,0.002081357928,0.01413201433,-0.005170231588,-0.6387615674,-3.034798508,44.05520968,124.6191687,-0.9953183396,-0.3417000959,63.92967358,-22.13797643,1338.849474
593.058,-1.667325678,0.2901334896,-32.04954549,0.001791690831,0.01598427177,-0.005199716299,-0.6385586098,-3.033055232,44.05474968,124.6035105,-0.9924620465,-0.3411735235,63.92970888,-22.13785894,1337.971403
593.158,-1.663592207,0.2893580263,-32.14158218,4.944761577e-05,-0.003849802138,-0.004872629229,-0.6384640058,-3.032147907,44.05434291,124.5871914,-0.9857479527,-0.3408755077,63.92974146,-22.13775048,1337.159829
593.258,-1.662457963,0.2888847309,-32.17577509,-0.001828780788,-0.02785526792,-0.004800997858,-0.6385544152,-3.033615769,44.05395917,124.5735,-0.9833810083,-0.3404769918,63.92977404,-22.13764203,1336.348069
593.367,-1.663184739,0.2884847139,-32.16125966,-0.003459917091,-0.04249116375,-0.004938777051,-0.6388286237,-3.037109577,44.05357161,124.5574176,-0.9834691912,-0.3401542694,63.92980662,-22.13753357,1335.536396
593.458,-1.66315117,0.2879621268,-32.14088215,-0.00456729807,-0.0470802815,-0.005030170063,-0.6392043796,-3.041198437,44.05320362,124.54402,-0.984329841,-0.3397994385,63.92983648,-22.13743416,1334.792346
593.567,-1.661697836,0.2874002001,-32.11845814,-0.005659339548,-0.04623675408,-0.004860200418,-0.639766763,-3.046231783,44.05276973,124.5284322,-0.9852501904,-0.3393915879,63.92987177,-22.13731666,1333.91276
593.658,-1.659447481,0.2870205648,-32.10760871,-0.006525907032,-0.04405658543,-0.00442568209,-0.6403325467,-3.050326424,44.05243012,124.5167193,-0.985723918,-0.3390402367,63.92990163,-22.13721725,1333.168093
593.758,-1.657454654,0.286651324,-32.09676985,-0.007423180848,-0.04221613664,-0.00369635114,-0.6410395747,-3.054580458,44.05211741,124.5027461,-0.9859482901,-0.3387817989,63.92993421,-22.13710879,1332.355169
593.867,-1.655568845,0.2864156582,-32.08533637,-0.00819639064,-0.0412851328,-0.002758242728,-0.6418974708,-3.05903476,44.05186934,124.4865567,-0.9860082309,-0.3386542029,63.9299695,-22.1369913,1331.473722
593.967,-1.653664889,0.2863027673,-32.07987047,-0.008651375968,-0.04129279423,-0.001897496358,-0.6427517585,-3.063101056,44.05173141,124.4742699,-0.9860728533,-0.3385484089,63.93000207,-22.13688284,1330.659269
594.058,-1.650332498,0.2861704904,-32.09685318,-0.008919039081,-0.042451796,-0.001133300248,-0.6436401841,-3.067182938,44.0516756,124.4610168,-0.9846228898,-0.3385971128,63.93003464,-22.13677439,1329.843962
594.158,-1.646407548,0.2861360018,-32.18411087,-0.01046484619,-0.06357804643,-0.0005640354623,-0.6446072682,-3.072170816,44.05169058,124.4485459,-0.9786911408,-0.3387902925,63.93006722,-22.13666593,1329.028069
594.258,-1.647336171,0.286537472,-32.19827489,-0.0115039465,-0.08648976661,-0.0007468005061,-0.6457218453,-3.0795832,44.0517304,124.4362769,-0.9773273011,-0.338972978,63.93009979,-22.13655747,1328.212281
594.358,-1.648596925,0.2867839986,-32.17525165,-0.01150528856,-0.09669633126,-0.001570649897,-0.646889492,-3.088737821,44.05171936,124.4242803,-0.9783366084,-0.3390830501,63.93013237,-22.13644901,1327.396728
594.458,-1.649717719,0.28677003,-32.13488478,-0.01111849706,-0.09595473901,-0.002589860427,-0.6480341605,-3.098376453,44.05161339,124.4113273,-0.9798438863,-0.3391405941,63.93016494,-22.13634055,1326.581183
594.567,-1.648159997,0.2866521418,-32.11065812,-0.01086717697,-0.090463112,-0.003458909191,-0.6491435389,-3.107682469,44.05141026,124.3999705,-0.981056611,-0.339066441,63.93019751,-22.13623209,1325.765354
594.667,-1.646467071,0.2863799729,-32.09392427,-0.01093581382,-0.08453195476,-0.004020402047,-0.6502426966,-3.116397315,44.05113384,124.3889184,-0.9818106759,-0.33893525,63.93023009,-22.13612362,1324.949001
594.758,-2.540376381,0.2898161115,-31.29214659,0.0001400891986,1.549642703,-0.02254005989,-0.6510852769,-3.102278342,44.05056476,124.3789799,-0.9487612285,-0.3387637128,63.93025995,-22.13602419,1324.19907
594.858,-1.843484638,0.2742862975,-35.92423807,-0.05245278148,3.962585901,0.01069164919,-0.6527499248,-2.779277642,44.04899206,124.363181,-0.6658903801,-0.3410815383,63.93029523,-22.1359067,1323.311594
594.967,-1.565348075,0.2878033916,-39.75018541,-0.1370530931,3.819665705,0.0790471231,-0.6620344384,-2.378785444,44.05333667,124.3343459,-0.4245733091,-0.350100935,63.9303278,-22.13579824,1322.532626
595.058,-2.357432082,0.3172776217,-41.02655988,-0.1680423534,5.012537696,0.1021943884,-0.6778909902,-1.996194384,44.06321132,124.2966585,-0.2590126754,-0.3642178818,63.93036037,-22.1356898,1321.829045
595.158,-1.690874887,0.3318702386,-45.73113656,-0.2113408921,6.462839148,0.1411025807,-0.6963318423,-1.4045003,44.07494174,124.2439474,0.03377198163,-0.3826453399,63.93039293,-22.13558137,1321.219914
595.258,-1.468243439,0.3631579586,-49.0420926,-0.2548847888,6.101762664,0.1770809814,-0.7177114631,-0.8205925126,44.08967161,124.1768598,0.2415647792,-0.4039385949,63.93042276,-22.13548201,1320.781592
595.358,-1.450339671,0.4060702895,-50.64335575,-0.26010609,5.241827293,0.1725278982,-0.7460831117,-0.2031620161,44.10921481,124.0781637,0.3464162322,-0.4301289743,63.93045801,-22.13536464,1320.44859
595.467,-1.518212713,0.4368137732,-50.65459467,-0.2271708497,4.716801532,0.1261826726,-0.7707758805,0.2939515323,44.12469552,123.9709146,0.3544196872,-0.4506517375,63.93049051,-22.13525637,1320.332961
595.558,-1.566269155,0.4530388382,-50.25223671,-0.1891706463,4.532630626,0.06382427561,-0.7899983682,0.7169138866,44.13383136,123.8624494,0.3355097705,-0.463854108,63.93052028,-22.1351572,1320.38883
595.658,-1.58143066,0.4586643473,-49.83312544,-0.1600120963,4.521594969,-0.009738729301,-0.8074278951,1.168727953,44.13692673,123.733711,0.3160454772,-0.4712653123,63.93055271,-22.13504911,1320.622131
595.758,-1.564213799,0.4538039644,-49.56784803,-0.1535859547,4.573777443,-0.08301924781,-0.8242085216,1.661175248,44.13220494,123.5814365,0.3065852928,-0.4715154749,63.93058779,-22.13493215,1321.073051
595.858,-1.535148879,0.4423681904,-49.44149276,-0.1702711063,4.604945515,-0.1382629918,-0.8401866047,2.120310495,44.12134807,123.4300758,0.306171138,-0.465741533,63.9306201,-22.13482433,1321.669374
595.958,-1.503497547,0.4268152024,-49.34925795,-0.2030294079,4.604802771,-0.1790068973,-0.8586266859,2.581090645,44.10561957,123.2692189,0.3089359826,-0.4557203051,63.93065235,-22.13471667,1322.437026
596.058,-0.9835257034,0.4154679785,-48.15714417,-0.2433731021,1.402660177,-0.1751346864,-0.8813096914,2.902416437,44.08830318,123.0985637,0.166389458,-0.442842006,63.93068454,-22.13460919,1323.378729
596.158,-1.484987454,0.3994760684,-43.63408397,-0.2146944898,0.4504309572,-0.2296050447,-0.9046403782,2.979957399,44.0685973,122.9287645,-0.1077006755,-0.4247504402,63.93071665,-22.13450187,1324.475724
596.258,-1.640928902,0.3636977413,-40.6151973,-0.1891909126,0.9530993699,-0.2799466205,-0.9246806323,3.04248771,44.04318144,122.7610222,-0.295513335,-0.4016602587,63.93074869,-22.13439473,1325.683833
596.367,-1.589991669,0.324361832,-39.44079427,-0.2038989686,1.658086272,-0.2914217775,-0.9439498803,3.171505427,44.01439491,122.5937149,-0.3663405714,-0.3771710898,63.93078066,-22.13428775,1326.973939
596.467,-1.489966519,0.2925265055,-39.34658381,-0.2492424547,2.07874122,-0.2640202219,-0.9662829178,3.359495954,43.98633226,122.4238031,-0.3666658851,-0.3555412539,63.93081256,-22.13418096,1328.334861
596.558,-1.407380469,0.2729538959,-39.56160095,-0.300005779,2.20043914,-0.2128521469,-0.9936098167,3.574950513,43.9622433,122.2289829,-0.3451402832,-0.3401483804,63.93084439,-22.13407433,1329.765717
596.667,-1.356023719,0.2643257874,-39.71372085,-0.3370405792,2.160755815,-0.1539836239,-1.025477597,3.793987252,43.94373468,122.0267903,-0.326549819,-0.3314325475,63.93087614,-22.1339679,1331.2685
596.767,-1.326927371,0.2642028803,-39.71423391,-0.3537357723,2.078773488,-0.09829378018,-1.060134516,4.006379003,43.93103629,121.820459,-0.3174071943,-0.3291875775,63.93090783,-22.13386165,1332.844503
596.867,-1.307190237,0.2704004073,-39.60704115,-0.3509331844,2.012472752,-0.05211193729,-1.095538312,4.211047565,43.92350801,121.6100826,-0.3151312827,-0.3325932758,63.93093943,-22.1337556,1334.493532
596.967,-1.288444237,0.2808873563,-39.46319896,-0.3333006234,1.972486081,-0.01859010822,-1.129935642,4.410326299,43.92003429,121.3951028,-0.3155144637,-0.3404398857,63.93097097,-22.13364975,1336.214356
597.067,-1.267608373,0.2939438067,-39.32510771,-0.306454521,1.949376222,0.001075538039,-1.162099488,4.606500893,43.91928128,121.1766,-0.3150776354,-0.3512722121,63.93100242,-22.13354411,1338.005364
597.158,-1.246620189,0.3068734639,-39.2301207,-0.2787495529,1.925475161,0.007048520471,-1.189056711,4.784293804,43.91979664,120.9731655,-0.3117312554,-0.3625959817,63.93103118,-22.13344746,1339.707523
597.267,-1.221729724,0.3214624196,-39.1173765,-0.2462004209,1.894470608,0.0001456229057,-1.217621652,4.991388871,43.92044007,120.7267952,-0.3090824949,-0.3761702746,63.93106508,-22.13333347,1341.792419
597.367,-1.199864311,0.332994363,-38.98682405,-0.2196603464,1.868297448,-0.01759597206,-1.240995737,5.17966924,43.91981002,120.4973988,-0.3071446276,-0.3874632716,63.93109628,-22.13322848,1343.78606
597.467,-1.175947805,0.3415661919,-38.85805922,-0.1994030974,1.843711498,-0.04330158486,-1.261985251,5.365415166,43.91701528,120.2634792,-0.3053516834,-0.3966891433,63.9311274,-22.13312372,1345.844652
597.558,-1.150327294,0.3465429858,-38.73031667,-0.1872111701,1.819060305,-0.0737719131,-1.281308752,5.548714861,43.91140484,120.0261324,-0.3034616802,-0.4032042201,63.93115842,-22.13301918,1347.966791
597.658,-1.122654432,0.3477781638,-38.60861784,-0.1838089707,1.793048278,-0.1058531266,-1.299814009,5.72950153,43.90264813,119.7841304,-0.3015527585,-0.4067945744,63.93118936,-22.13291488,1350.151071
597.758,-1.094442077,0.3458693375,-38.47181765,-0.1888828189,1.765549082,-0.1367513269,-1.318373734,5.907617392,43.89071593,119.5417266,-0.2994659254,-0.4073536935,63.93122021,-22.13281081,1352.396086
597.858,-1.06459877,0.3409871677,-38.33897021,-0.2014280639,1.736312005,-0.1641756084,-1.337795736,6.082896391,43.87583683,119.2949528,-0.2975113062,-0.4053538921,63.93125096,-22.13270699,1354.700404
597.967,-1.033833173,0.3338350295,-38.20548588,-0.2198326321,1.705755907,-0.1865175187,-1.358755916,6.255188216,43.85843735,119.0453251,-0.2956516769,-0.4012555342,63.93128162,-22.13260341,1357.062574
598.067,-1.002334096,0.3255734823,-38.06377167,-0.24218737,1.67431885,-0.2028725777,-1.38175446,6.424380641,43.83907303,118.7928368,-0.2936479013,-0.3957331318,63.93131219,-22.13250007,1359.481115
598.158,-0.9713627225,0.317369623,-37.96028647,-0.2647822383,1.640051397,-0.2123621966,-1.404900359,6.576522952,43.82012255,118.5585159,-0.2902495027,-0.3900321261,63.93134012,-22.13240557,1361.746406
598.258,-0.939395915,0.3087603615,-37.82827664,-0.2895963416,1.600490842,-0.2172539164,-1.432538517,6.738752904,43.79870585,118.3007945,-0.2879112873,-0.3835139508,63.9313705,-22.13230272,1364.269091
598.358,-0.908005627,0.3008140076,-37.67977324,-0.3128502479,1.563885302,-0.2173058371,-1.46259926,6.897143227,43.77702952,118.0405758,-0.2864341848,-0.3774421261,63.93140078,-22.13220013,1366.844045
598.458,-0.8736148229,0.293244268,-37.51868505,-0.3349530578,1.527752899,-0.2131412642,-1.497646641,7.064791373,43.75375719,117.7540448,-0.285235164,-0.3719058581,63.93143348,-22.13208929,1369.690708
598.558,-0.8422478217,0.2880218254,-37.36570414,-0.3517339872,1.496324454,-0.2067596039,-1.53195482,7.216181043,43.73280666,117.4891076,-0.2838871432,-0.3679453548,63.93146356,-22.13198725,1372.369384
598.675,-0.8138475548,0.2849280084,-37.22270106,-0.3637590788,1.467940201,-0.1999559316,-1.564736331,7.352213064,43.71421295,117.2465535,-0.2823041249,-0.3654236605,63.93149104,-22.13189395,1374.866406
598.758,-0.7802035705,0.2824363624,-37.05938096,-0.3738104022,1.43381832,-0.1922236694,-1.604697117,7.509586489,43.69303854,116.9541312,-0.2804163324,-0.364180647,63.93152342,-22.13178397,1377.866953
598.858,-0.7520807074,0.2817632945,-36.92362097,-0.3794535109,1.404374376,-0.1867955522,-1.639231378,7.639841441,43.6757336,116.7055362,-0.2786519776,-0.3641951364,63.93155072,-22.13169117,1380.446364
598.958,-0.7191333697,0.2821224886,-36.76398582,-0.3830351674,1.369065091,-0.1827654819,-1.680558106,7.790274551,43.65581735,116.4096049,-0.2764179654,-0.3653931385,63.93158287,-22.1315818,1383.540868
599.058,-0.6912993869,0.2828862628,-36.63539987,-0.3841921579,1.338684741,-0.1818839742,-1.715739061,7.914559216,43.63919643,116.1563642,-0.2745008861,-0.3670925342,63.93160999,-22.1314895,1386.196915
599.158,-0.5789374773,0.3642469452,-36.45189091,0.0803147299,0.9588563832,-0.2064961582,-1.739156536,8.045752274,43.61879823,115.8559337,-0.2838987486,-0.3687481124,63.93164193,-22.13138073,1389.379014
599.258,-0.5875506288,0.3005852936,-35.8238072,0.283851814,0.6462177254,-0.2474630377,-1.719640562,8.125904227,43.59639965,115.5777692,-0.3199078642,-0.3657289479,63.9316713,-22.13128062,1392.355345
599.367,-0.5754804914,0.2741403743,-35.12815467,0.3350211072,0.4676087921,-0.2882062513,-1.688307508,8.181671674,43.56983375,115.3006872,-0.3610928441,-0.357750453,63.93170058,-22.13118079,1395.362741
599.467,-0.552404484,0.254281637,-34.49722967,0.3421085298,0.3434409324,-0.3210210785,-1.654309713,8.22242984,43.53951648,115.0225619,-0.398932501,-0.345253461,63.93172975,-22.13108123,1398.394386
599.558,-0.5261502558,0.2363257551,-33.98173872,0.3364902949,0.2620305473,-0.3414625643,-1.623148598,8.250386561,43.50924237,114.7694227,-0.4282983731,-0.331049409,63.93175641,-22.1309902,1401.18934
599.667,-0.5058986944,0.2151077408,-33.46106518,0.3253684072,0.2417837277,-0.353580638,-1.587249204,8.276767944,43.47162696,114.4726105,-0.453810552,-0.3127541777,63.93178781,-22.1308829,1404.50613
599.758,-0.4490915457,0.1932924162,-33.15486064,0.3123740816,0.1914480022,-0.3497100323,-1.555309677,8.299548495,43.43640747,114.1984304,-0.4683259664,-0.2942849989,63.93181669,-22.13078413,1407.576261
599.858,-0.4072853126,0.1744648738,-32.82471548,0.300067626,0.06511295608,-0.3334615252,-1.524665464,8.313210715,43.4021906,113.9274014,-0.4833430556,-0.2772188475,63.93184549,-22.13068561,1410.651332
599.958,-0.3808083145,0.1573324436,-32.45377801,0.2904381645,-0.04885789457,-0.3102169058,-1.495129573,8.314268765,43.36994959,113.6573103,-0.5010380868,-0.2616729166,63.93187419,-22.13058734,1413.728136
600.067,-0.3571665051,0.1426978884,-32.09103947,0.2826996986,-0.1224672206,-0.2822901673,-1.466462845,8.305697643,43.34026177,113.3898957,-0.5177965254,-0.2484734261,63.93190279,-22.13048932,1416.803052
600.158,-0.3453923628,0.131516841,-31.77932365,0.2765556217,-0.1136858701,-0.2547211569,-1.440818825,8.294065839,43.31560572,113.1467337,-0.5302762355,-0.2385744325,63.93192894,-22.13039968,1419.61698
600.258,-0.3031264322,0.1221298566,-31.57421819,0.2687685074,-0.1095581102,-0.2183500191,-1.411262626,8.282455906,43.28989534,112.8648685,-0.534864003,-0.2306903641,63.93195974,-22.130294,1422.933339
600.358,-0.2897840752,0.1181545254,-31.40838869,0.2624639437,-0.1256535977,-0.1848432735,-1.384692223,8.270428613,43.2697094,112.611877,-0.5351378529,-0.2274194384,63.93198809,-22.13019669,1425.983883
600.458,-0.2472141935,0.1164045928,-31.36165059,0.2557297564,-0.05533351078,-0.1554308022,-1.358742495,8.262234741,43.25264214,112.360815,-0.5276490052,-0.2269859797,63.93201635,-22.13009962,1429.022578
600.558,-0.1930774842,0.117679143,-31.33377179,0.2470828395,-0.164152088,-0.1257587891,-1.333575302,8.252785243,43.23857633,112.1115188,-0.5214898476,-0.2290825071,63.93204452,-22.13000278,1432.049022
600.658,-0.189556104,0.1215230954,-31.14413674,0.2393536855,-0.2548492041,-0.1042525415,-1.309243272,8.230986926,43.22716264,111.86427,-0.5237672503,-0.2330605464,63.9320726,-22.12990616,1435.062839
600.767,-0.1712761779,0.1259681668,-30.97806718,0.2314448979,-0.2771841766,-0.09066867504,-1.28567226,8.204276433,43.21749691,111.6191181,-0.5254308095,-0.2381772096,63.93210061,-22.12980977,1438.062312
600.858,-0.1496305189,0.1307948558,-30.85593309,0.2218970921,-0.273663399,-0.08292707979,-1.262960234,8.17665748,43.20891138,111.3762334,-0.5236010742,-0.2438516598,63.93212852,-22.1297136,1441.045861
600.967,-0.1262591422,0.1356913838,-30.77754869,0.2102483597,-0.2689316458,-0.07977339708,-1.241299617,8.149548299,43.20088334,111.1356267,-0.5183059492,-0.2496010468,63.93215636,-22.12961764,1444.012369
601.067,-0.1007687946,0.1402925314,-30.73195719,0.1967506117,-0.2631141165,-0.08063184326,-1.220891168,8.12303616,43.19297907,110.8972961,-0.5104639679,-0.2550163858,63.93218411,-22.1295219,1446.961147
601.158,-0.09078189551,0.1442992746,-30.68293549,0.182113034,-0.2222226116,-0.08542489977,-1.201892745,8.097703931,43.18481997,110.6616851,-0.5015462469,-0.2597280179,63.93221179,-22.12942637,1449.89174
601.267,-0.05626762724,0.1473423506,-30.71871119,0.1658176129,-0.183728573,-0.09161962459,-1.184425605,8.077654657,43.17608036,110.4283799,-0.4870560152,-0.2635864142,63.93223938,-22.12933105,1452.803831
601.358,-0.02518143208,0.149505099,-30.77465804,0.148357595,-0.1760539364,-0.09849558151,-1.168649802,8.060004892,43.1666902,110.1969299,-0.4712712081,-0.2665079715,63.93226689,-22.12923593,1455.697829
601.467,0.005428277576,0.151027314,-30.8043004,0.1307616603,-0.203856605,-0.1059113899,-1.154635446,8.041384089,43.15659,109.9676778,-0.4574784907,-0.2684183789,63.93229432,-22.12914102,1458.574311
601.558,0.02665023992,0.1515336745,-30.7968875,0.1153050038,-0.2317035853,-0.1135396162,-1.143309647,8.021534101,43.14664453,109.7592772,-0.4475009161,-0.2692306659,63.93231939,-22.1290542,1461.195992
601.658,0.03554871277,0.1509315459,-30.75928189,0.09812079475,-0.2198956009,-0.1235332885,-1.131701509,7.995875686,43.1339526,109.5152546,-0.4365965865,-0.2690310561,63.93234893,-22.12895181,1464.275658
601.758,0.06685487889,0.1491556674,-30.79029515,0.08235178285,-0.1831241353,-0.1315133675,-1.122620936,7.975823027,43.12129548,109.2923506,-0.4224931898,-0.2678621924,63.93237612,-22.1288575,1467.100214
601.858,0.1000695526,0.1468186534,-30.8407491,0.06655390954,-0.1783280786,-0.1370276692,-1.11512385,7.958096494,43.10795461,109.0715417,-0.4071436897,-0.2659905865,63.93240324,-22.1287634,1469.907619
601.967,0.1279239347,0.141238601,-30.86196047,0.05099762659,-0.1960178154,-0.1406320041,-1.109177533,7.93951842,43.09415233,108.8489838,-0.3937764058,-0.2617316759,63.93243027,-22.12866949,1472.6984
602.067,0.1541057037,0.133209508,-30.85170116,0.02963617428,-0.2082736266,-0.1401305631,-1.105037507,7.919289687,43.08015608,108.6219962,-0.3822683643,-0.2540228511,63.93245723,-22.12857577,1475.472798
602.167,0.1668046156,0.1252662948,-30.8174318,0.006994451028,-0.1887973203,-0.1354650249,-1.103134337,7.89853318,43.0664193,108.3966606,-0.3716221399,-0.2462612238,63.93248411,-22.12848225,1478.230755
602.258,0.2282569624,0.106168104,-30.85473112,-0.01916478364,-0.1628034042,-0.1248094023,-1.103507353,7.881841522,43.05334389,108.1542903,-0.3580697691,-0.2319132327,63.93251092,-22.12838892,1480.972079
602.358,0.5533432734,0.0835378605,-30.9585478,-0.06338555813,-0.9141481939,-0.08979479669,-1.107375822,7.843455609,43.04228853,107.8955408,-0.3715952027,-0.212144593,63.93253765,-22.12829578,1483.697671
602.458,0.8158850683,0.07356547769,-29.74498815,-0.09757082497,-3.10374943,-0.04014498482,-1.115514531,7.660708,43.0357222,107.641392,-0.5143184569,-0.1945827492,63.93256432,-22.12820283,1486.407979
602.558,0.8071364051,0.06174796208,-26.39550401,-0.09491869039,-5.667503654,-0.01637853327,-1.125493494,7.2302675,43.03321278,107.3967667,-0.828668082,-0.1767522271,63.93259092,-22.12811005,1489.089789
602.658,0.6701037991,0.04721852479,-21.79072908,-0.05654563771,-7.501901685,-0.03266255604,-1.13343791,6.571333822,43.03119228,107.1678789,-1.24077952,-0.1554982264,63.93261746,-22.1280174,1491.709372
602.758,0.5363376149,0.02615198463,-17.22723427,-0.004214978141,-8.275108659,-0.07226631973,-1.136704708,5.776929991,43.02628681,106.9568249,-1.641398755,-0.1294456805,63.93264398,-22.12792486,1494.221173
602.858,0.5170497014,-0.005619786934,-13.7021273,0.03749982779,-8.18928005,-0.1092890346,-1.135045384,4.948117771,43.01731781,106.7667834,-1.949404577,-0.09958530361,63.93267047,-22.12783238,1496.580653
602.958,0.5355103379,-0.03959661117,-11.52524146,0.05271014465,-7.676915714,-0.1223738647,-1.130414587,4.150597532,43.00563576,106.5991955,-2.138486496,-0.06860187455,63.93269696,-22.12773994,1498.753682
603.058,0.5662002812,-0.07444223916,-10.54891978,0.04144884505,-7.00663301,-0.1052518387,-1.125426435,3.413325946,42.99399881,106.4537931,-2.219541932,-0.03964958507,63.93272345,-22.12764752,1500.719355
603.158,0.6145638601,-0.1001896835,-10.4941142,0.006079803164,-6.378283387,-0.05817036675,-1.122732524,2.742690934,42.98547777,106.3314234,-2.219714858,-0.01571024633,63.93274994,-22.12755511,1502.468541
603.258,0.619928199,-0.1133666285,-10.89943116,-0.03924054306,-5.908866428,0.00457609615,-1.123998926,2.17778621,42.98273436,106.2404009,-2.175807915,-0.0001335533186,63.93277423,-22.1274704,1503.881443
603.358,0.401945489,-0.1213240244,-11.52127611,-0.09366914717,-4.99205921,0.07689109862,-1.130424521,1.619830031,42.98667338,106.1658128,-2.084454089,0.008611738887,63.93280074,-22.127378,1505.218956
603.467,0.049261409,-0.1234172743,-13.45126778,-0.16148674,-2.401708272,0.1474874865,-1.143785256,1.194380557,42.99857857,106.1078191,-1.844113989,0.006905873112,63.93282947,-22.12727789,1506.435564
603.558,-0.04985287782,-0.1191474546,-17.12978247,-0.2464266253,0.4411660726,0.2268326014,-1.161897094,1.092866686,43.01525441,106.072785,-1.4673969,-0.0061521226,63.93285378,-22.1271932,1507.293466
603.658,0.0758495578,-0.0995500411,-23.25631392,-0.3842545037,3.165597477,0.3588354009,-1.195221305,1.287298414,43.04620676,106.0400838,-0.880569557,-0.03896916901,63.93288253,-22.12709313,1508.150488
603.758,0.2519672819,-0.05831178235,-28.77200678,-0.5102222949,4.488936206,0.484050348,-1.235724958,1.640246693,43.08437845,106.0099526,-0.3671132094,-0.08252113593,63.93290686,-22.12700849,1508.793883
603.858,0.4698605833,0.005705878108,-34.38010664,-0.6375557318,4.9391953,0.6114851017,-1.297685626,2.15789045,43.14365609,105.9628521,0.1504421367,-0.1503941442,63.93293561,-22.12690851,1509.523928
603.958,0.5652457421,0.0830069716,-38.14837674,-0.7166076042,4.750009752,0.6702659043,-1.365377795,2.646070445,43.20810367,105.9025124,0.4946883811,-0.2231298676,63.93296215,-22.12681629,1510.221568
604.067,0.6140439298,0.1602765762,-40.53078962,-0.7561754372,4.367854685,0.6637797004,-1.439141245,3.104131986,43.2754089,105.825355,0.7166086524,-0.2981022455,63.93298867,-22.12672416,1510.980008
604.167,0.6269362144,0.2321484632,-41.85570272,-0.7642263399,3.99439028,0.5999781309,-1.515339324,3.52334321,43.33934773,105.7329401,0.8444803506,-0.3687885886,63.93301517,-22.12663214,1511.822255
604.258,0.619148481,0.2904256824,-42.50428004,-0.7530637803,3.750218443,0.4910295983,-1.591347586,3.911432334,43.39469711,105.6267309,0.9130822691,-0.4302141336,63.93304165,-22.12654024,1512.760877
604.367,0.6245047325,0.3407976631,-42.76971642,-0.7328546581,3.528400623,0.3537558126,-1.665769641,4.276196658,43.43775317,105.5080232,0.9449443388,-0.4790341662,63.93306809,-22.12644848,1513.80202
604.458,0.6298579618,0.3715598292,-42.76870732,-0.7124021976,3.332879571,0.2135335075,-1.73210829,4.591503973,43.46446739,105.3891128,0.9520365568,-0.5110289099,63.9330923,-22.1263645,1514.848477
604.558,0.6361614042,0.3918078496,-42.55641504,-0.6891461665,3.107885895,0.0415313931,-1.808117469,4.941313624,43.47908195,105.2373318,0.941521747,-0.5322367432,63.93312086,-22.12626542,1516.198363
604.667,0.6441960606,0.3953986845,-42.22064361,-0.6694604,2.90460639,-0.1137430729,-1.87611924,5.242824599,43.47611699,105.0874889,0.919347879,-0.536054932,63.93314717,-22.12617415,1517.550879
604.758,0.6464448447,0.3830048169,-41.80553281,-0.6521599941,2.760554456,-0.2590001558,-1.942260201,5.526751273,43.45801681,104.9292582,0.8918462856,-0.5258463344,63.93317344,-22.12608305,1519.001874
604.867,0.6671820933,0.3648715924,-41.37622356,-0.6364085074,2.588554854,-0.3850994312,-2.006758449,5.795177168,43.42622696,104.7635552,0.8615156026,-0.5034041624,63.93319965,-22.12599215,1520.54711
604.958,0.6886132918,0.3321643541,-40.89818936,-0.6214116638,2.400949876,-0.4884543247,-2.069730007,6.045544368,43.38284824,104.5910056,0.8271880227,-0.4709914307,63.93322581,-22.12590144,1522.182126
605.058,0.7082067179,0.2983977691,-40.37886469,-0.6046774234,2.213409422,-0.5672633631,-2.13113217,6.277033935,43.33024761,104.4125742,0.7894584225,-0.4310833533,63.93325192,-22.12581094,1523.901977
605.158,0.7291041812,0.2575099128,-39.83297956,-0.585607708,2.035579145,-0.6204934847,-2.190768683,6.490166983,43.27093793,104.2289189,0.7495596091,-0.3862878727,63.93327797,-22.12572065,1525.701325
605.267,0.7410629765,0.2146860098,-39.28859799,-0.5635277404,1.921374706,-0.6501453872,-2.248368143,6.688184942,43.20739818,104.0406708,0.7116772762,-0.339218505,63.93330397,-22.12563058,1527.574533
605.358,0.7707614523,0.1756384952,-38.8438474,-0.5411039441,1.804939057,-0.6548983853,-2.299133886,6.859651972,43.14751415,103.8644448,0.6803268028,-0.2962238259,63.93332775,-22.12554822,1529.351872
605.458,0.8024955765,0.1293388217,-38.32729039,-0.5111961101,1.654684806,-0.6366172829,-2.356307085,7.047781304,43.07734476,103.6520256,0.6445298642,-0.2479984867,63.93335579,-22.12545112,1531.521294
605.558,0.8265026787,0.09328183833,-37.85255972,-0.4797817664,1.522172576,-0.601453063,-2.406021886,7.20708969,43.01523839,103.4524693,0.6121678362,-0.2078326297,63.93338162,-22.12536173,1533.585069
605.658,0.8482382808,0.0673200701,-37.43103697,-0.4478119746,1.411451522,-0.557589159,-2.448704615,7.34199312,42.96192658,103.266935,0.583778419,-0.175881093,63.93340525,-22.12528,1535.524286
605.758,0.8662045897,0.03962022378,-36.95814537,-0.4078257545,1.329195821,-0.4972365291,-2.495254924,7.490219388,42.90455972,103.0446249,0.5538860867,-0.1451291008,63.93343312,-22.12518366,1537.869493
605.858,0.8934205405,0.01900985619,-36.61531671,-0.3732739507,1.251799542,-0.4403246652,-2.531210394,7.609000948,42.86138924,102.8540818,0.5327702987,-0.1255175976,63.93345666,-22.12510237,1539.895216
605.958,0.9161146646,0.008304590375,-36.25689075,-0.3346580578,1.1622458,-0.3768768176,-2.56679508,7.730098561,42.8203482,102.6440045,0.5116700105,-0.1109169225,63.93348228,-22.12501391,1542.144662
606.067,0.9429708995,0.0003442606175,-35.88613822,-0.2931789515,1.054844876,-0.3105658875,-2.60099041,7.850802184,42.78295829,102.4138088,0.490008916,-0.1027218678,63.93350998,-22.12491835,1544.624106
606.158,0.9593740921,-0.0015418929,-35.5689818,-0.2588591382,0.9619233036,-0.2596359928,-2.626445877,7.9435964,42.75673022,102.2171615,0.4717776731,-0.1013739515,63.93353337,-22.12483772,1546.753483
606.258,0.9672881627,-0.001694919296,-35.20187767,-0.2206767913,0.9054622852,-0.2103369696,-2.652559752,8.044127882,42.73127599,101.9827473,0.4525788502,-0.1053813659,63.93356095,-22.12474268,1549.303217
606.367,0.9890872892,0.006877305913,-34.93202496,-0.1884492606,0.8614354673,-0.1743622662,-2.673134788,8.132828924,42.71204026,101.7647357,0.4400897839,-0.1134136093,63.93358636,-22.12465521,1551.685268
606.458,1.008629178,0.01459275875,-34.70725995,-0.1622996393,0.8054584529,-0.1495393295,-2.689312202,8.209597121,42.69722469,101.5634367,0.4307956641,-0.1234858847,63.9336096,-22.12457523,1553.89043
606.567,1.028750688,0.02547162249,-34.4486691,-0.1351970311,0.7324904159,-0.1315673994,-2.705523346,8.293291024,42.68211854,101.3239874,0.4207243915,-0.1374702583,63.93363702,-22.12448098,1556.520534
606.658,1.046017393,0.03626224789,-34.21310404,-0.1142455685,0.6633705385,-0.1256834923,-2.718070167,8.363378642,42.66939282,101.1016797,0.4118375879,-0.1511996704,63.93366227,-22.12439423,1558.968923
606.758,1.049324078,0.04601583557,-33.99516903,-0.09848462868,0.6391394029,-0.1303516479,-2.72786636,8.422537356,42.65783079,100.8971461,0.4052448323,-0.1635688147,63.93368537,-22.12431491,1561.22856
606.858,1.081480182,0.05356108154,-33.81934204,-0.08445438234,0.6142230568,-0.1439227697,-2.737796162,8.491121262,42.64315639,100.6572775,0.4026094554,-0.1770217203,63.93371261,-22.12422143,1563.91543
606.958,1.116423631,0.06163365335,-33.66163573,-0.0749871731,0.5193851224,-0.1599855482,-2.745779128,8.548834801,42.62812373,100.4351106,0.3994632757,-0.1876112939,63.9337377,-22.12413539,1566.409716
607.058,1.139821721,0.06801010649,-33.43851317,-0.06777942828,0.3794687111,-0.1797553513,-2.75292886,8.594523335,42.61132668,100.2124876,0.3904087735,-0.195836662,63.93376274,-22.12404958,1568.915897
607.158,1.143005991,0.07476143975,-33.13934255,-0.06265685848,0.2701673326,-0.201890842,-2.758938406,8.624312436,42.59403122,100.009535,0.3738490886,-0.2007333682,63.93378565,-22.12397112,1571.221728
607.267,1.144288404,0.07639781026,-32.79991743,-0.05771792112,0.2481034287,-0.2337398091,-2.76548434,8.651197508,42.5707048,99.77012682,0.357485484,-0.2033329456,63.93381266,-22.12387865,1573.953807
607.358,1.180739814,0.0750324494,-32.60814094,-0.05556486851,0.2316372031,-0.2612801701,-2.771139447,8.675900049,42.54609298,99.54951924,0.3511708048,-0.2028519185,63.93383754,-22.12379353,1576.479364
607.467,1.205397653,0.07206352104,-32.42872013,-0.05579624565,0.1721139869,-0.284512274,-2.776701475,8.696472105,42.51895055,99.32940069,0.3471275894,-0.1999051204,63.93386237,-22.12370864,1579.006437
607.567,1.22416002,0.06749915434,-32.25058937,-0.05715138125,0.1259863636,-0.3057597753,-2.782351778,8.711443427,42.4895829,99.10998557,0.3439818834,-0.1947799436,63.93388716,-22.12362397,1581.533284
607.658,1.242212701,0.05952082295,-32.10347069,-0.05953971379,0.1007861935,-0.3227832951,-2.78768875,8.721847157,42.46089241,98.90957352,0.3430724765,-0.1884785612,63.93390983,-22.12354655,1583.847888
607.758,1.252621909,0.05208369818,-31.95742041,-0.06277154692,0.1186885205,-0.3406687208,-2.794292864,8.732750272,42.42510655,98.6739006,0.3463223619,-0.1795196235,63.93393657,-22.12345529,1586.579599
607.867,1.286554233,0.05414909134,-31.93073813,-0.06311154312,0.1488536272,-0.3538007191,-2.800685105,8.746556058,42.39047683,98.47215159,0.3571024889,-0.178153227,63.93396121,-22.12337128,1589.096334
607.958,1.306581384,0.06499176142,-31.94001358,-0.04365000644,0.1358489333,-0.3687704301,-2.805783147,8.759897948,42.35753038,98.30865437,0.3690410493,-0.18710806,63.93398375,-22.12329447,1591.399017
608.058,1.323879359,0.07198175522,-31.92845859,-0.01070724426,0.1035538519,-0.3935079689,-2.80890598,8.773077999,42.31648752,98.11526978,0.3809955876,-0.1951192328,63.93401034,-22.12320392,1594.115141
608.158,1.33865824,0.07567122213,-31.8937735,0.0198530415,0.07942163755,-0.4220309108,-2.808567494,8.782282238,42.27593883,97.93802331,0.3905185144,-0.1999910145,63.93403484,-22.12312056,1596.617171
608.267,1.339342826,0.07677106856,-31.84317431,0.04754041935,0.07481001294,-0.4543260684,-2.805295538,8.789512911,42.23236983,97.76168255,0.3997538258,-0.2018862896,63.93405928,-22.12303742,1599.113946
608.358,1.36512387,0.07401616655,-31.84540271,0.0693920782,0.1076597738,-0.4859369349,-2.800009329,8.798031497,42.1894534,97.59902635,0.4112154565,-0.1998484381,63.93408165,-22.1229614,1601.397688
608.458,1.391723814,0.06477009604,-31.85401991,0.08689057016,0.1125660594,-0.5167901189,-2.792175717,8.809250752,42.13947099,97.41368927,0.4250687738,-0.1901044921,63.93410601,-22.12287867,1603.883607
608.558,1.421338107,0.04776751987,-31.85107673,0.09199455251,0.09991342974,-0.5418136611,-2.782436522,8.820944953,42.08223154,97.20652117,0.4394902989,-0.1727545411,63.93413234,-22.12278928,1606.570402
608.658,1.447717936,0.03326175564,-31.83633375,0.09213770812,0.08026515982,-0.5569591308,-2.773217055,8.830120934,42.02736381,97.01647514,0.4517685599,-0.1549756648,63.93415661,-22.122707,1609.044699
608.758,1.472208761,0.01991015943,-31.80684803,0.09140844771,0.05909097335,-0.5648443704,-2.764041918,8.837199647,41.97131945,96.82764467,0.4628687749,-0.1362746705,63.93418082,-22.12262492,1611.513284
608.858,1.489634782,0.005191479045,-31.78718962,0.09073464878,0.09507197092,-0.5683414995,-2.75494159,8.8451002,41.91466925,96.63993551,0.4761701439,-0.1173716642,63.93420499,-22.12254306,1613.975836
608.967,1.519809539,-0.009076633868,-31.79898156,0.09026720262,0.09768410801,-0.5636382108,-2.745906359,8.854958078,41.85806651,96.45334298,0.4911492037,-0.09895944025,63.93422912,-22.12246141,1616.432282
609.058,1.545466996,-0.02129458928,-31.80308912,0.09037448546,0.08491497455,-0.5541778719,-2.737643085,8.863504499,41.80682734,96.28324664,0.5042000484,-0.08298776557,63.9342512,-22.12238675,1618.678791
609.158,1.569590141,-0.03348207069,-31.79567243,0.09138358307,0.06613173989,-0.5399910011,-2.728579362,8.871189313,41.75210398,96.09859855,0.5175003789,-0.06695611016,63.93427524,-22.1223055,1621.123881
609.258,1.594622399,-0.04644637864,-31.77826966,0.09314773193,0.04502557648,-0.5214535601,-2.718607781,8.877304419,41.69458627,95.89971455,0.530424908,-0.05152689336,63.93430124,-22.12221772,1623.766022
609.358,1.60944596,-0.05569248084,-31.75990306,0.09531096869,0.07736385332,-0.5047460685,-2.709195605,8.883368413,41.6432559,95.71738655,0.5437992283,-0.03924994897,63.93432519,-22.12213691,1626.198492
609.458,1.635163273,-0.06155472859,-31.7696137,0.09728622127,0.08408388517,-0.4872527602,-2.700383587,8.890951297,41.59777009,95.55124785,0.5577093776,-0.02976352601,63.93434712,-22.12206302,1628.422751
609.558,1.658848511,-0.06782260884,-31.77531188,0.0992334518,0.07507246659,-0.467638599,-2.690581227,8.899034749,41.55002024,95.37089581,0.5722409382,-0.0213444434,63.93437099,-22.1219826,1630.843373
609.658,1.680095082,-0.07261356503,-31.76922942,0.1011515643,0.0618702896,-0.4490585201,-2.680583345,8.905978673,41.504192,95.19153242,0.5855773036,-0.01481046112,63.93439482,-22.1219024,1633.257977
609.758,1.701774743,-0.07768157922,-31.75617601,0.102894357,0.04997675341,-0.4310689762,-2.669542391,8.912102083,41.45654107,94.99828162,0.598991566,-0.009631831862,63.9344206,-22.12181574,1635.866965
609.867,1.710703628,-0.0786678752,-31.73883344,0.1040056143,0.09274100659,-0.4190769515,-2.659203609,8.918791045,41.41408081,94.82104309,0.6132538574,-0.006351176992,63.93444434,-22.12173596,1638.268763
609.958,1.73748927,-0.08019025756,-31.77138952,0.1041001213,0.1144495159,-0.4090090092,-2.649667923,8.928512091,41.37615191,94.65928973,0.629184885,-0.004413959127,63.93446608,-22.12166301,1640.464889
610.058,1.764522876,-0.08238506305,-31.8044112,0.1030757054,0.1033059792,-0.3986498823,-2.638440779,8.94063544,41.33245912,94.46892524,0.6472538034,-0.003149726853,63.93449172,-22.12157701,1643.05391
610.167,1.781272436,-0.08122129637,-31.8059101,0.1017689248,0.08421257042,-0.392250248,-2.62820113,8.950120109,41.29298433,94.29405545,0.6619270439,-0.002622036255,63.93451534,-22.12149784,1645.437927
610.267,1.794765145,-0.08116892407,-31.7961976,0.1003119612,0.06683867155,-0.3889479948,-2.61810444,8.957764433,41.25400502,94.11969546,0.6749278014,-0.002365130934,63.93453893,-22.12141888,1647.816402
610.358,1.794266474,-0.08223126706,-31.77531394,0.09739612207,0.09590951433,-0.3899150276,-2.608199392,8.965257368,41.21517041,93.94589922,0.6884897787,-0.002117747156,63.93456247,-22.12134011,1650.18921
610.458,1.814357168,-0.08137496188,-31.8058552,0.09504052888,0.1504245319,-0.3936204768,-2.599365123,8.976688946,41.17932854,93.78720942,0.7053172716,-0.001721810475,63.93458402,-22.12126808,1652.359158
610.558,1.847555191,-0.08325376527,-31.86518956,0.09017742386,0.1325093967,-0.3960986908,-2.589313347,8.992764939,41.13663354,93.60004229,0.7254218575,-0.0009095301833,63.93460944,-22.12118318,1654.917772
610.658,1.86279504,-0.08388674201,-31.86579004,0.08538327794,0.08836663944,-0.3997374442,-2.58051777,9.004009807,41.09694308,93.4278461,0.7394851033,0.0003900854306,63.93463287,-22.12110501,1657.27445
610.758,1.872749592,-0.08498573594,-31.83379664,0.08055658857,0.0594146524,-0.4057584725,-2.572203145,9.011370928,41.05677752,93.25624711,0.7503795034,0.002411380884,63.93465625,-22.12102704,1659.626235
610.867,1.873782156,-0.08537264867,-31.79178127,0.07550453647,0.08918795692,-0.4149478286,-2.564383789,9.01803046,41.01587653,93.08537151,0.7621450818,0.005241070102,63.93467959,-22.12094927,1661.97278
610.958,1.89388783,-0.08760461252,-31.80597836,0.07000123076,0.1184088058,-0.4229011974,-2.557694423,9.027665079,40.97755784,92.92921637,0.7765679608,0.008510551218,63.93470096,-22.12087815,1664.11891
611.058,1.913783305,-0.09042701146,-31.83043985,0.06338139994,0.128588995,-0.4303957393,-2.551003124,9.040188396,40.93498308,92.75936562,0.7935333998,0.01274528424,63.93472422,-22.12080076,1666.454988
611.158,1.930772858,-0.09360467778,-31.84795355,0.05648902756,0.1247490559,-0.437217342,-2.544993633,9.05297148,40.89169581,92.5900069,0.8099301874,0.01763893475,63.93474745,-22.12072357,1668.785945
611.258,1.947634716,-0.09875933329,-31.85849701,0.04891825131,0.1152598637,-0.4441228823,-2.539264373,9.066056832,40.84405456,92.40702315,0.8264248037,0.02363663924,63.93477257,-22.12064016,1671.305588
611.358,1.950260014,-0.1009742924,-31.84668976,0.04278011293,0.1366077105,-0.4508548874,-2.535046584,9.076950518,40.80314555,92.25275601,0.840398488,0.02922796111,63.93479378,-22.12056976,1673.433133
611.458,1.965826956,-0.1054440137,-31.87334104,0.03462539461,0.1745290545,-0.4578021762,-2.530839265,9.093604267,40.75402143,92.07084054,0.8600545202,0.03629407513,63.93481881,-22.12048678,1675.942221
611.558,1.994457869,-0.1114155181,-31.9356544,0.02765995832,0.2020671981,-0.46305519,-2.527695747,9.11294026,40.70803224,91.90322469,0.8806565823,0.04314055341,63.93484188,-22.12041038,1678.253521
611.658,2.017376162,-0.1159062355,-31.97418259,0.02055135184,0.1730323714,-0.4654806399,-2.52526463,9.132077911,40.66167207,91.73593207,0.8990475914,0.05020012725,63.9348649,-22.12033418,1680.560816
611.758,2.031945817,-0.1204264281,-31.9725351,0.01438140991,0.1363995213,-0.4677277562,-2.523504678,9.147713872,40.61508671,91.56895769,0.9134127795,0.05745897324,63.93488789,-22.12025817,1682.864487
611.867,2.033188131,-0.1236618468,-31.93552623,0.008978597093,0.1349239098,-0.4711867693,-2.522330775,9.160521746,40.56825108,91.40244661,0.9257897175,0.0648947669,63.93491083,-22.12018236,1685.164491
611.958,2.05113531,-0.1280646693,-31.93600659,0.004119216444,0.1514193635,-0.4740367278,-2.521720817,9.173743584,40.52498736,91.25013074,0.9390937685,0.07178747984,63.93493183,-22.12011304,1687.269362
612.058,2.068744683,-0.1328042662,-31.94173671,-0.001036033347,0.1560549475,-0.4757172554,-2.521557351,9.189232001,40.47756292,91.08433641,0.9544804257,0.07927569239,63.9349547,-22.12003761,1689.561802
612.167,2.085525225,-0.1377505767,-31.94423238,-0.006464752786,0.1541030712,-0.4766497267,-2.521958697,9.206072934,40.42604858,90.90514175,0.9709890911,0.08726260689,63.93497943,-22.11995611,1692.040908
612.267,2.102709278,-0.1435189635,-31.94872768,-0.01110899306,0.1484869868,-0.4770473268,-2.522827296,9.221361687,40.37842375,90.74006706,0.9858723874,0.09447489298,63.93500222,-22.11988108,1694.325324
612.367,2.107028244,-0.1464118308,-31.92999696,-0.01540718011,0.1617582969,-0.4781567581,-2.524148118,9.23615617,40.33076327,90.57550015,1.000561473,0.1015073579,63.93502497,-22.11980624,1696.605914
612.458,2.127100683,-0.1506429075,-31.95179477,-0.01979383137,0.1864346681,-0.4792313394,-2.525898596,9.253746976,40.28294903,90.41119129,1.01783202,0.1083244276,63.93504769,-22.1197316,1698.882582
612.558,2.145739198,-0.154647895,-31.97635638,-0.02408875574,0.1871582219,-0.4792941868,-2.528083745,9.272665966,40.23508084,90.24704557,1.035473108,0.1148922856,63.93507036,-22.11965716,1701.15554
612.658,2.160728897,-0.1583724975,-31.98618411,-0.02819908222,0.1727435095,-0.4791827854,-2.530692717,9.29081031,40.18722344,90.08306021,1.051661416,0.1212340576,63.935093,-22.11958291,1703.425035
612.758,2.170842154,-0.1616184898,-31.98059499,-0.03163679128,0.1620154231,-0.4796828545,-2.533435874,9.306155514,40.14334382,89.93292093,1.065169411,0.1268914947,63.93511371,-22.11951502,1705.502451
612.858,2.171417712,-0.1649753984,-31.95986473,-0.03521283129,0.171662334,-0.481527742,-2.536776029,9.322254832,40.09538427,89.76936791,1.07967406,0.1329336933,63.93513627,-22.11944114,1707.765449
612.958,2.192007654,-0.1700578295,-31.98631812,-0.03930064235,0.2141529924,-0.4847846045,-2.540799432,9.343299656,40.04310987,89.59236801,1.099006252,0.1393370157,63.93516067,-22.11936133,1710.213014
613.067,2.212082703,-0.1734182905,-32.02134893,-0.04322027656,0.2262562,-0.4868891868,-2.544912387,9.3655336,39.99459253,89.42914048,1.11839469,0.1451094302,63.93518316,-22.11928787,1712.46881
613.158,2.22875813,-0.1750795026,-32.04359794,-0.04666661092,0.2190436558,-0.4887921049,-2.549031349,9.386103541,39.94994325,89.27957502,1.135510545,0.1503197342,63.93520373,-22.11922069,1714.533993
613.267,2.246377335,-0.178443903,-32.05424032,-0.05066571152,0.1935754421,-0.4913982155,-2.554303156,9.40868629,39.89693675,89.10280275,1.153363893,0.1564781909,63.93522801,-22.11914152,1716.971718
613.358,2.24546423,-0.1827586525,-32.03177392,-0.05398119347,0.1824507535,-0.4952990747,-2.559531217,9.427099688,39.84770804,88.93974441,1.16761075,0.1622676946,63.93525038,-22.11906864,1719.219176
613.458,2.268063812,-0.1860394717,-32.0374377,-0.05831547612,0.2057647071,-0.500800705,-2.565084727,9.446790094,39.79796587,88.7769926,1.183619791,0.1682165064,63.93527271,-22.11899595,1721.463809
613.567,2.290996427,-0.1912873656,-32.04617177,-0.07271750295,0.1818363451,-0.5031383129,-2.571519068,9.466641646,39.74781937,88.61432934,1.199188623,0.1742350242,63.935295,-22.11892347,1723.70567
613.658,2.30661163,-0.1947750953,-32.02634698,-0.09025031555,0.1354360641,-0.5035906273,-2.578915239,9.481510967,39.70173016,88.46540058,1.210311817,0.1796987357,63.9353154,-22.11885719,1725.758354
613.758,2.32034645,-0.1994029955,-31.96958201,-0.1118488599,0.07286056462,-0.5031292153,-2.589783107,9.493096448,39.64725749,88.28972819,1.219087746,0.1859830531,63.93533947,-22.11877908,1728.18111
613.858,2.330364536,-0.200539479,-31.89307157,-0.1293262312,0.02353498718,-0.5021930052,-2.600778727,9.497710064,39.60122925,88.14167364,1.223689864,0.1910644795,63.93535981,-22.11871317,1730.227987
613.958,2.341229254,-0.2043344669,-31.79507055,-0.1485754157,-0.02633122717,-0.5004094969,-2.615783968,9.497720755,39.546977,87.96734958,1.227226028,0.1966496232,63.9353838,-22.11863548,1732.64243
